[
    {
        "id": 1,
        "schoolName": "Ball State University",
        "stateCode": "IN",
        "latitude": 40.19949,
        "longitude": -85.41247,
        "region": 1,
        "zone": -1,
        "numRiders": 0,
        "anchorSchool": true
    },
    {
        "id": 10,
        "schoolName": "Taylor University",
        "stateCode": "IN",
        "latitude": 40.45838,
        "longitude": -85.49525,
        "region": 1,
        "zone": -1,
        "numRiders": 0,
        "anchorSchool": false
    },
    {
        "id": 11,
        "schoolName": "University of Illinois Urbana-Champaign",
        "stateCode": "IL",
        "latitude": 40.1019523,
        "longitude": -88.2271615,
        "region": 1,
        "zone": -1,
        "numRiders": 0,
        "anchorSchool": false
    },
    {
        "id": 12,
        "schoolName": "New Mexico State University",
        "stateCode": "NM",
        "latitude": 32.28259,
        "longitude": -106.75,
        "region": 2,
        "zone": -1,
        "numRiders": 0,
        "anchorSchool": false
    },
    {
        "id": 13,
        "schoolName": "NCTC North Central Texas College - Gainesville Campus",
        "stateCode": "TX",
        "latitude": 33.6187918,
        "longitude": -97.1659405,
        "region": 2,
        "zone": -1,
        "numRiders": 0,
        "anchorSchool": false
    },
    {
        "id": 14,
        "schoolName": "Oklahoma Panhandle State University",
        "stateCode": "OK",
        "latitude": 36.59452,
        "longitude": -101.63849,
        "region": 2,
        "zone": -1,
        "numRiders": 0,
        "anchorSchool": false
    },
    {
        "id": 15,
        "schoolName": "Southern Nazarene University",
        "stateCode": "OK",
        "latitude": 35.51229,
        "longitude": -97.62995,
        "region": 2,
        "zone": -1,
        "numRiders": 0,
        "anchorSchool": true
    },
    {
        "id": 16,
        "schoolName": "Tarleton State University",
        "stateCode": "TX",
        "latitude": 32.2160478,
        "longitude": -98.2181417,
        "region": 2,
        "zone": -1,
        "numRiders": 0,
        "anchorSchool": false
    },
    {
        "id": 17,
        "schoolName": "Texas Tech University",
        "stateCode": "TX",
        "latitude": 33.5842635,
        "longitude": -101.8804709,
        "region": 2,
        "zone": -1,
        "numRiders": 0,
        "anchorSchool": false
    },
    {
        "id": 18,
        "schoolName": "University of North Texas",
        "stateCode": "TX",
        "latitude": 33.2074925,
        "longitude": -97.1547749,
        "region": 2,
        "zone": -1,
        "numRiders": 0,
        "anchorSchool": false
    },
    {
        "id": 19,
        "schoolName": "University of Oklahoma",
        "stateCode": "OK",
        "latitude": 35.205898,
        "longitude": -97.4479024,
        "region": 2,
        "zone": -1,
        "numRiders": 0,
        "anchorSchool": false
    },
    {
        "id": 2,
        "schoolName": "Butler University",
        "stateCode": "IN",
        "latitude": 39.83893,
        "longitude": -86.17249,
        "region": 1,
        "zone": -1,
        "numRiders": 0,
        "anchorSchool": false
    },
    {
        "id": 20,
        "schoolName": "West Texas A&M University",
        "stateCode": "TX",
        "latitude": 34.9816953,
        "longitude": -101.9182216,
        "region": 2,
        "zone": -1,
        "numRiders": 0,
        "anchorSchool": false
    },
    {
        "id": 21,
        "schoolName": "Gustavus Adolphus College",
        "stateCode": "MN",
        "latitude": 44.3233,
        "longitude": -93.97051,
        "region": 3,
        "zone": -1,
        "numRiders": 0,
        "anchorSchool": true
    },
    {
        "id": 22,
        "schoolName": "Montana State University",
        "stateCode": "MT",
        "latitude": 45.66965,
        "longitude": -111.053,
        "region": 3,
        "zone": -1,
        "numRiders": 0,
        "anchorSchool": false
    },
    {
        "id": 23,
        "schoolName": "North Dakota State University",
        "stateCode": "ND",
        "latitude": 46.89469,
        "longitude": -96.80341,
        "region": 3,
        "zone": -1,
        "numRiders": 0,
        "anchorSchool": false
    },
    {
        "id": 24,
        "schoolName": "Saint Cloud State University",
        "stateCode": "MN",
        "latitude": 45.55274,
        "longitude": -94.15193,
        "region": 3,
        "zone": -1,
        "numRiders": 0,
        "anchorSchool": false
    },
    {
        "id": 25,
        "schoolName": "University of Minnesota - Crookston",
        "stateCode": "MN",
        "latitude": 47.7998584,
        "longitude": -96.6094281,
        "region": 3,
        "zone": -1,
        "numRiders": 0,
        "anchorSchool": false
    },
    {
        "id": 26,
        "schoolName": "University of Minnesota - Twin Cities",
        "stateCode": "MN",
        "latitude": 44.9739938,
        "longitude": -93.2299172,
        "region": 3,
        "zone": -1,
        "numRiders": 0,
        "anchorSchool": true
    },
    {
        "id": 27,
        "schoolName": "University of Wisconsin - Eau Claire",
        "stateCode": "WI",
        "latitude": 44.79843,
        "longitude": -91.50043,
        "region": 3,
        "zone": -1,
        "numRiders": 0,
        "anchorSchool": false
    },
    {
        "id": 28,
        "schoolName": "University of Wisconsin - River Falls",
        "stateCode": "WI",
        "latitude": 44.85352,
        "longitude": -92.6234,
        "region": 3,
        "zone": -1,
        "numRiders": 0,
        "anchorSchool": true
    },
    {
        "id": 29,
        "schoolName": "Augustana College",
        "stateCode": "IL",
        "latitude": 41.50337,
        "longitude": -90.54902,
        "region": 4,
        "zone": -1,
        "numRiders": 3,
        "anchorSchool": false
    },
    {
        "id": 3,
        "schoolName": "Earlham College",
        "stateCode": "IN",
        "latitude": 39.82338,
        "longitude": -84.91357,
        "region": 1,
        "zone": -1,
        "numRiders": 0,
        "anchorSchool": false
    },
    {
        "id": 30,
        "schoolName": "Ellsworth Community College",
        "stateCode": "IA",
        "latitude": 42.52719,
        "longitude": -93.26647,
        "region": 4,
        "zone": -1,
        "numRiders": 0,
        "anchorSchool": false
    },
    {
        "id": 31,
        "schoolName": "Iowa State University",
        "stateCode": "IA",
        "latitude": 42.0251,
        "longitude": -93.64915,
        "region": 4,
        "zone": -1,
        "numRiders": 41,
        "anchorSchool": false
    },
    {
        "id": 32,
        "schoolName": "Marquette University",
        "stateCode": "WI",
        "latitude": 43.03896,
        "longitude": -87.92798,
        "region": 4,
        "zone": -1,
        "numRiders": 10,
        "anchorSchool": false
    },
    {
        "id": 33,
        "schoolName": "Northwestern University",
        "stateCode": "IL",
        "latitude": 42.05559,
        "longitude": -87.6745,
        "region": 4,
        "zone": -1,
        "numRiders": 0,
        "anchorSchool": false
    },
    {
        "id": 34,
        "schoolName": "Purdue University Northwest - Hammond",
        "stateCode": "IN",
        "latitude": 41.581327,
        "longitude": -87.471445,
        "region": 4,
        "zone": -1,
        "numRiders": 1,
        "anchorSchool": false
    },
    {
        "id": 35,
        "schoolName": "Ripon College",
        "stateCode": "WI",
        "latitude": 43.84256,
        "longitude": -88.84186,
        "region": 4,
        "zone": -1,
        "numRiders": 3,
        "anchorSchool": false
    },
    {
        "id": 36,
        "schoolName": "University of Notre Dame",
        "stateCode": "IN",
        "latitude": 41.7055756,
        "longitude": -86.2353388,
        "region": 4,
        "zone": -1,
        "numRiders": 27,
        "anchorSchool": false
    },
    {
        "id": 37,
        "schoolName": "University of Wisconsin - LaCrosse",
        "stateCode": "WI",
        "latitude": 43.8159923,
        "longitude": -91.233342,
        "region": 4,
        "zone": -1,
        "numRiders": 14,
        "anchorSchool": false
    },
    {
        "id": 38,
        "schoolName": "University of Wisconsin - Madison",
        "stateCode": "WI",
        "latitude": 43.076592,
        "longitude": -89.4146762,
        "region": 4,
        "zone": -1,
        "numRiders": 20,
        "anchorSchool": false
    },
    {
        "id": 39,
        "schoolName": "University of Wisconsin - Milwaukee",
        "stateCode": "WI",
        "latitude": 43.07535,
        "longitude": -87.88126,
        "region": 4,
        "zone": -1,
        "numRiders": 8,
        "anchorSchool": false
    },
    {
        "id": 4,
        "schoolName": "Eastern Illinois University",
        "stateCode": "IL",
        "latitude": 39.48059,
        "longitude": -88.1756,
        "region": 1,
        "zone": -1,
        "numRiders": 0,
        "anchorSchool": false
    },
    {
        "id": 40,
        "schoolName": "University of Wisconsin - Platteville",
        "stateCode": "WI",
        "latitude": 42.73363,
        "longitude": -90.48951,
        "region": 4,
        "zone": -1,
        "numRiders": 40,
        "anchorSchool": false
    },
    {
        "id": 41,
        "schoolName": "Black Hawk College",
        "stateCode": "IL",
        "latitude": 41.52864,
        "longitude": -90.41096,
        "region": 5,
        "zone": -1,
        "numRiders": 26,
        "anchorSchool": false
    },
    {
        "id": 42,
        "schoolName": "Illinois State University",
        "stateCode": "IL",
        "latitude": 40.51254,
        "longitude": -88.99758,
        "region": 5,
        "zone": -1,
        "numRiders": 19,
        "anchorSchool": false
    },
    {
        "id": 43,
        "schoolName": "Kansas State University",
        "stateCode": "KS",
        "latitude": 39.18858,
        "longitude": -96.58099,
        "region": 5,
        "zone": -1,
        "numRiders": 29,
        "anchorSchool": false
    },
    {
        "id": 44,
        "schoolName": "Missouri State University",
        "stateCode": "MO",
        "latitude": 37.19838,
        "longitude": -93.27852,
        "region": 5,
        "zone": -1,
        "numRiders": 26,
        "anchorSchool": false
    },
    {
        "id": 45,
        "schoolName": "Northern Illinois University",
        "stateCode": "IL",
        "latitude": 41.93753,
        "longitude": -88.77592,
        "region": 5,
        "zone": -1,
        "numRiders": 12,
        "anchorSchool": false
    },
    {
        "id": 46,
        "schoolName": "Northwest Missouri State University",
        "stateCode": "MO",
        "latitude": 40.35314,
        "longitude": -94.88215,
        "region": 5,
        "zone": -1,
        "numRiders": 7,
        "anchorSchool": false
    },
    {
        "id": 47,
        "schoolName": "Saint Louis University",
        "stateCode": "MO",
        "latitude": 38.63533,
        "longitude": -90.23372,
        "region": 5,
        "zone": -1,
        "numRiders": 4,
        "anchorSchool": false
    },
    {
        "id": 48,
        "schoolName": "Southeast Missouri State University",
        "stateCode": "MO",
        "latitude": 37.31255,
        "longitude": -89.53093,
        "region": 5,
        "zone": -1,
        "numRiders": 10,
        "anchorSchool": false
    },
    {
        "id": 49,
        "schoolName": "Southern Illinois University at Carbondale",
        "stateCode": "IL",
        "latitude": 37.7131371,
        "longitude": -89.2257454,
        "region": 5,
        "zone": -1,
        "numRiders": 19,
        "anchorSchool": false
    },
    {
        "id": 5,
        "schoolName": "Indiana University",
        "stateCode": "IN",
        "latitude": 39.16616,
        "longitude": -86.52639,
        "region": 1,
        "zone": -1,
        "numRiders": 0,
        "anchorSchool": false
    },
    {
        "id": 50,
        "schoolName": "Truman State University",
        "stateCode": "MO",
        "latitude": 40.18948,
        "longitude": -92.58186,
        "region": 5,
        "zone": -1,
        "numRiders": 19,
        "anchorSchool": false
    },
    {
        "id": 51,
        "schoolName": "University of Kansas",
        "stateCode": "KS",
        "latitude": 38.9543439,
        "longitude": -95.2579848,
        "region": 5,
        "zone": -1,
        "numRiders": 6,
        "anchorSchool": false
    },
    {
        "id": 52,
        "schoolName": "Washington University in St. Louis",
        "stateCode": "MO",
        "latitude": 38.6466729,
        "longitude": -90.3309783,
        "region": 5,
        "zone": -1,
        "numRiders": 15,
        "anchorSchool": false
    },
    {
        "id": 53,
        "schoolName": "Western Illinois University",
        "stateCode": "IL",
        "latitude": 40.46421,
        "longitude": -90.68374,
        "region": 5,
        "zone": -1,
        "numRiders": 13,
        "anchorSchool": false
    },
    {
        "id": 6,
        "schoolName": "Indiana University-Purdue University at Indianapolis",
        "stateCode": "IN",
        "latitude": 39.77643,
        "longitude": -86.18527,
        "region": 1,
        "zone": -1,
        "numRiders": 0,
        "anchorSchool": false
    },
    {
        "id": 7,
        "schoolName": "Lake Land College",
        "stateCode": "IL",
        "latitude": 39.41726,
        "longitude": -88.3806,
        "region": 1,
        "zone": -1,
        "numRiders": 0,
        "anchorSchool": false
    },
    {
        "id": 8,
        "schoolName": "Purdue University",
        "stateCode": "IN",
        "latitude": 40.42809,
        "longitude": -86.92251,
        "region": 1,
        "zone": -1,
        "numRiders": 0,
        "anchorSchool": true
    },
    {
        "id": 9,
        "schoolName": "Saint Mary-of-the-Woods College",
        "stateCode": "IN",
        "latitude": 39.51059,
        "longitude": -87.46113,
        "region": 1,
        "zone": -1,
        "numRiders": 0,
        "anchorSchool": false
    }
]